{
"type": "FeatureCollection",
"name": "output_file",
"crs": { "type": "name", "properties": { "name": "urn:ogc:def:crs:OGC:1.3:CRS84" } },
"features": [
{ "type": "Feature", "properties": { "city_name": "San Marino", "population": 33860.0, "country_name": "San Marino", "region": "AUS" }, "geometry": { "type": "Point", "coordinates": [ 12.4417702, 43.9360958 ] } },
{ "type": "Feature", "properties": { "city_name": "Vaduz", "population": 38019.0, "country_name": "Liechtenstein", "region": "NZL" }, "geometry": { "type": "Point", "coordinates": [ 9.5166695, 47.1337238 ] } },
{ "type": "Feature", "properties": { "city_name": "Luxembourg", "population": 619896.0, "country_name": "Luxembourg", "region": "XOC" }, "geometry": { "type": "Point", "coordinates": [ 6.1300028, 49.6116604 ] } },
{ "type": "Feature", "properties": { "city_name": "Monaco", "population": 38964.0, "country_name": "Monaco", "region": "CHN" }, "geometry": { "type": "Point", "coordinates": [ 7.4069132, 43.7396457 ] } },
{ "type": "Feature", "properties": { "city_name": "Andorra", "population": 77142.0, "country_name": "Andorra", "region": "HKG" }, "geometry": { "type": "Point", "coordinates": [ 1.526594255165481, 42.510753494167098 ] } },
{ "type": "Feature", "properties": { "city_name": "Port-of-Spain", "population": 1394973.0, "country_name": "Trinidad and Tobago", "region": "JPN" }, "geometry": { "type": "Point", "coordinates": [ -61.5170309, 10.6519971 ] } },
{ "type": "Feature", "properties": { "city_name": "Kigali", "population": 12626950.0, "country_name": "Rwanda", "region": "KOR" }, "geometry": { "type": "Point", "coordinates": [ 30.0585859, -1.9516442 ] } },
{ "type": "Feature", "properties": { "city_name": "Mbabane", "population": 1148130.0, "country_name": "eSwatini", "region": "MNG" }, "geometry": { "type": "Point", "coordinates": [ 31.1333345, -26.3166508 ] } },
{ "type": "Feature", "properties": { "city_name": "Juba", "population": 11062113.0, "country_name": "South Sudan", "region": "TWN" }, "geometry": { "type": "Point", "coordinates": [ 31.5800256, 4.8299752 ] } },
{ "type": "Feature", "properties": { "city_name": "Ljubljana", "population": 2087946.0, "country_name": "Slovenia", "region": "XEA" }, "geometry": { "type": "Point", "coordinates": [ 14.514969, 46.0552883 ] } },
{ "type": "Feature", "properties": { "city_name": "Bratislava", "population": 5454073.0, "country_name": "Slovakia", "region": "BRN" }, "geometry": { "type": "Point", "coordinates": [ 17.1169808, 48.1500183 ] } },
{ "type": "Feature", "properties": { "city_name": "Doha", "population": 2832067.0, "country_name": "Qatar", "region": "KHM" }, "geometry": { "type": "Point", "coordinates": [ 51.5329679, 25.286556 ] } },
{ "type": "Feature", "properties": { "city_name": "Podgorica", "population": 622137.0, "country_name": "Montenegro", "region": "IDN" }, "geometry": { "type": "Point", "coordinates": [ 19.2663069, 42.4659725 ] } },
{ "type": "Feature", "properties": { "city_name": "Bern", "population": 8574832.0, "country_name": "Switzerland", "region": "LAO" }, "geometry": { "type": "Point", "coordinates": [ 7.4669755, 46.9166828 ] } },
{ "type": "Feature", "properties": { "city_name": "Djibouti", "population": 973560.0, "country_name": "Djibouti", "region": "MYS" }, "geometry": { "type": "Point", "coordinates": [ 43.1480017, 11.5950145 ] } },
{ "type": "Feature", "properties": { "city_name": "Banjul", "population": 2347706.0, "country_name": "Gambia, The", "region": "PHL" }, "geometry": { "type": "Point", "coordinates": [ -16.5917015, 13.4538765 ] } },
{ "type": "Feature", "properties": { "city_name": "Skopje", "population": 2083459.0, "country_name": "North Macedonia", "region": "SGP" }, "geometry": { "type": "Point", "coordinates": [ 21.4334615, 42.0000061 ] } },
{ "type": "Feature", "properties": { "city_name": "Bridgetown", "population": 287025.0, "country_name": "Barbados", "region": "THA" }, "geometry": { "type": "Point", "coordinates": [ -59.6165267, 13.1020026 ] } },
{ "type": "Feature", "properties": { "city_name": "Bujumbura", "population": 11530580.0, "country_name": "Burundi", "region": "VNM" }, "geometry": { "type": "Point", "coordinates": [ 29.3600061, -3.3760872 ] } },
{ "type": "Feature", "properties": { "city_name": "Port Louis", "population": 1265711.0, "country_name": "Mauritius", "region": "XSE" }, "geometry": { "type": "Point", "coordinates": [ 57.4999939, -20.1666386 ] } },
{ "type": "Feature", "properties": { "city_name": "Manama", "population": 1641172.0, "country_name": "Bahrain", "region": "BGD" }, "geometry": { "type": "Point", "coordinates": [ 50.5830517, 26.2361363 ] } },
{ "type": "Feature", "properties": { "city_name": "Saint John's", "population": 97118.0, "country_name": "Antigua and Barbuda", "region": "IND" }, "geometry": { "type": "Point", "coordinates": [ -61.8500338, 17.1180365 ] } },
{ "type": "Feature", "properties": { "city_name": "Montevideo", "population": 3461734.0, "country_name": "Uruguay", "region": "NPL" }, "geometry": { "type": "Point", "coordinates": [ -56.186823378310741, -34.905376389708067 ] } },
{ "type": "Feature", "properties": { "city_name": "Lome", "population": 8082366.0, "country_name": "Togo", "region": "PAK" }, "geometry": { "type": "Point", "coordinates": [ 1.2208113, 6.1338829 ] } },
{ "type": "Feature", "properties": { "city_name": "Tunis", "population": 11694719.0, "country_name": "Tunisia", "region": "LKA" }, "geometry": { "type": "Point", "coordinates": [ 10.1796781, 36.8027781 ] } },
{ "type": "Feature", "properties": { "city_name": "Abu Dhabi", "population": 9770529.0, "country_name": "United Arab Emirates", "region": "XSA" }, "geometry": { "type": "Point", "coordinates": [ 54.3665934, 24.4666836 ] } },
{ "type": "Feature", "properties": { "city_name": "Ashgabat", "population": 5942089.0, "country_name": "Turkmenistan", "region": "CAN" }, "geometry": { "type": "Point", "coordinates": [ 58.3832991, 37.9499949 ] } },
{ "type": "Feature", "properties": { "city_name": "Lusaka", "population": 17861030.0, "country_name": "Zambia", "region": "USA" }, "geometry": { "type": "Point", "coordinates": [ 28.2813817, -15.4146984 ] } },
{ "type": "Feature", "properties": { "city_name": "Harare", "population": 14645468.0, "country_name": "Zimbabwe", "region": "MEX" }, "geometry": { "type": "Point", "coordinates": [ 31.0427636, -17.8158438 ] } },
{ "type": "Feature", "properties": { "city_name": "Port Vila", "population": 299882.0, "country_name": "Vanuatu", "region": "XNA" }, "geometry": { "type": "Point", "coordinates": [ 168.3166406, -17.7333504 ] } },
{ "type": "Feature", "properties": { "city_name": "Tegucigalpa", "population": 9746117.0, "country_name": "Honduras", "region": "ARG" }, "geometry": { "type": "Point", "coordinates": [ -87.2194752, 14.1039908 ] } },
{ "type": "Feature", "properties": { "city_name": "Georgetown", "population": 782766.0, "country_name": "Guyana", "region": "BOL" }, "geometry": { "type": "Point", "coordinates": [ -58.1670286, 6.8019737 ] } },
{ "type": "Feature", "properties": { "city_name": "Reykjavik", "population": 361313.0, "country_name": "Iceland", "region": "BRA" }, "geometry": { "type": "Point", "coordinates": [ -21.936546009025054, 64.143459463170331 ] } },
{ "type": "Feature", "properties": { "city_name": "Port-au-Prince", "population": 11263077.0, "country_name": "Haiti", "region": "CHL" }, "geometry": { "type": "Point", "coordinates": [ -72.3379804, 18.5429705 ] } },
{ "type": "Feature", "properties": { "city_name": "Kampala", "population": 44269594.0, "country_name": "Uganda", "region": "COL" }, "geometry": { "type": "Point", "coordinates": [ 32.5813777, 0.3186048 ] } },
{ "type": "Feature", "properties": { "city_name": "Paramaribo", "population": 581363.0, "country_name": "Suriname", "region": "ECU" }, "geometry": { "type": "Point", "coordinates": [ -55.1670309, 5.8350301 ] } },
{ "type": "Feature", "properties": { "city_name": "Niamey", "population": 23310715.0, "country_name": "Niger", "region": "PRY" }, "geometry": { "type": "Point", "coordinates": [ 2.1147102, 13.5186518 ] } },
{ "type": "Feature", "properties": { "city_name": "Dushanbe", "population": 9321018.0, "country_name": "Tajikistan", "region": "PER" }, "geometry": { "type": "Point", "coordinates": [ 68.7738794, 38.5600352 ] } },
{ "type": "Feature", "properties": { "city_name": "Asuncion", "population": 7044636.0, "country_name": "Paraguay", "region": "URY" }, "geometry": { "type": "Point", "coordinates": [ -57.625833755283011, -25.29067083610963 ] } },
{ "type": "Feature", "properties": { "city_name": "Managua", "population": 6545502.0, "country_name": "Nicaragua", "region": "VEN" }, "geometry": { "type": "Point", "coordinates": [ -86.2704375, 12.1549624 ] } },
{ "type": "Feature", "properties": { "city_name": "Freetown", "population": 7813215.0, "country_name": "Sierra Leone", "region": "XSM" }, "geometry": { "type": "Point", "coordinates": [ -13.2361616, 8.4719573 ] } },
{ "type": "Feature", "properties": { "city_name": "Islamabad", "population": 216565318.0, "country_name": "Pakistan", "region": "CRI" }, "geometry": { "type": "Point", "coordinates": [ 73.080630177648246, 33.689368483707085 ] } },
{ "type": "Feature", "properties": { "city_name": "Kathmandu", "population": 28608710.0, "country_name": "Nepal", "region": "GTM" }, "geometry": { "type": "Point", "coordinates": [ 85.3146964, 27.7186378 ] } },
{ "type": "Feature", "properties": { "city_name": "Johannesburg", "population": 58558270.0, "country_name": "South Africa", "region": "HND" }, "geometry": { "type": "Point", "coordinates": [ 28.0280639, -26.1680989 ] } },
{ "type": "Feature", "properties": { "city_name": "Port Moresby", "population": 8776109.0, "country_name": "Papua New Guinea", "region": "NIC" }, "geometry": { "type": "Point", "coordinates": [ 147.1925036, -9.4647078 ] } },
{ "type": "Feature", "properties": { "city_name": "Panama City", "population": 4246439.0, "country_name": "Panama", "region": "PAN" }, "geometry": { "type": "Point", "coordinates": [ -79.534983, 8.969963 ] } },
{ "type": "Feature", "properties": { "city_name": "Rabat", "population": 36471769.0, "country_name": "Morocco", "region": "SLV" }, "geometry": { "type": "Point", "coordinates": [ -6.8364082, 34.0253073 ] } },
{ "type": "Feature", "properties": { "city_name": "Chisinau", "population": 2657637.0, "country_name": "Moldova", "region": "XCA" }, "geometry": { "type": "Point", "coordinates": [ 28.8577111, 47.0050236 ] } },
{ "type": "Feature", "properties": { "city_name": "Maputo", "population": 30366036.0, "country_name": "Mozambique", "region": "DOM" }, "geometry": { "type": "Point", "coordinates": [ 32.5872171, -25.9533316 ] } },
{ "type": "Feature", "properties": { "city_name": "Mogadishu", "population": 10192317.3, "country_name": "Somalia", "region": "JAM" }, "geometry": { "type": "Point", "coordinates": [ 45.3647318, 2.0686272 ] } },
{ "type": "Feature", "properties": { "city_name": "Muscat", "population": 4974986.0, "country_name": "Oman", "region": "PRI" }, "geometry": { "type": "Point", "coordinates": [ 58.378310584587076, 23.58517901476684 ] } },
{ "type": "Feature", "properties": { "city_name": "Colombo", "population": 21803000.0, "country_name": "Sri Lanka", "region": "TTO" }, "geometry": { "type": "Point", "coordinates": [ 79.8577506, 6.9319658 ] } },
{ "type": "Feature", "properties": { "city_name": "Ulaanbaatar", "population": 3225167.0, "country_name": "Mongolia", "region": "XCB" }, "geometry": { "type": "Point", "coordinates": [ 106.9146699, 47.9186193 ] } },
{ "type": "Feature", "properties": { "city_name": "Windhoek", "population": 2494530.0, "country_name": "Namibia", "region": "AUT" }, "geometry": { "type": "Point", "coordinates": [ 17.0835461, -22.5700061 ] } },
{ "type": "Feature", "properties": { "city_name": "Abuja", "population": 200963599.0, "country_name": "Nigeria", "region": "BEL" }, "geometry": { "type": "Point", "coordinates": [ 7.489505042885861, 9.054620406360845 ] } },
{ "type": "Feature", "properties": { "city_name": "Amman", "population": 10101694.0, "country_name": "Jordan", "region": "BGR" }, "geometry": { "type": "Point", "coordinates": [ 35.9313541, 31.9519711 ] } },
{ "type": "Feature", "properties": { "city_name": "Vilnius", "population": 2786844.0, "country_name": "Lithuania", "region": "HRV" }, "geometry": { "type": "Point", "coordinates": [ 25.3166353, 54.6833663 ] } },
{ "type": "Feature", "properties": { "city_name": "Riga", "population": 1912789.0, "country_name": "Latvia", "region": "CYP" }, "geometry": { "type": "Point", "coordinates": [ 24.0999654, 56.9500238 ] } },
{ "type": "Feature", "properties": { "city_name": "Bishkek", "population": 6456900.0, "country_name": "Kyrgyzstan", "region": "CZE" }, "geometry": { "type": "Point", "coordinates": [ 74.5832584, 42.8750253 ] } },
{ "type": "Feature", "properties": { "city_name": "Maseru", "population": 2125268.0, "country_name": "Lesotho", "region": "DNK" }, "geometry": { "type": "Point", "coordinates": [ 27.4832731, -29.3166744 ] } },
{ "type": "Feature", "properties": { "city_name": "Antananarivo", "population": 26969307.0, "country_name": "Madagascar", "region": "EST" }, "geometry": { "type": "Point", "coordinates": [ 47.514678, -18.9146915 ] } },
{ "type": "Feature", "properties": { "city_name": "Quito", "population": 17373662.0, "country_name": "Ecuador", "region": "FIN" }, "geometry": { "type": "Point", "coordinates": [ -78.501997, -0.2130423 ] } },
{ "type": "Feature", "properties": { "city_name": "San Jose", "population": 5047561.0, "country_name": "Costa Rica", "region": "FRA" }, "geometry": { "type": "Point", "coordinates": [ -84.078813969646333, 9.930370727948475 ] } },
{ "type": "Feature", "properties": { "city_name": "San Salvador", "population": 6453553.0, "country_name": "El Salvador", "region": "DEU" }, "geometry": { "type": "Point", "coordinates": [ -89.215575804527603, 13.703280259193864 ] } },
{ "type": "Feature", "properties": { "city_name": "Kingston", "population": 2948279.0, "country_name": "Jamaica", "region": "GRC" }, "geometry": { "type": "Point", "coordinates": [ -76.7674337, 17.9770766 ] } },
{ "type": "Feature", "properties": { "city_name": "Ndjamena", "population": 15946876.0, "country_name": "Chad", "region": "HUN" }, "geometry": { "type": "Point", "coordinates": [ 15.0472025, 12.1150424 ] } },
{ "type": "Feature", "properties": { "city_name": "Asmara", "population": 6081196.0, "country_name": "Eritrea", "region": "IRL" }, "geometry": { "type": "Point", "coordinates": [ 38.9333235, 15.3333393 ] } },
{ "type": "Feature", "properties": { "city_name": "Zagreb", "population": 4067500.0, "country_name": "Croatia", "region": "ITA" }, "geometry": { "type": "Point", "coordinates": [ 15.9999947, 45.8000067 ] } },
{ "type": "Feature", "properties": { "city_name": "Tallinn", "population": 1326590.0, "country_name": "Estonia", "region": "LVA" }, "geometry": { "type": "Point", "coordinates": [ 24.7280407, 59.4338774 ] } },
{ "type": "Feature", "properties": { "city_name": "Lilongwe", "population": 18628747.0, "country_name": "Malawi", "region": "LTU" }, "geometry": { "type": "Point", "coordinates": [ 33.783302, -13.9832951 ] } },
{ "type": "Feature", "properties": { "city_name": "Guatemala", "population": 16604026.0, "country_name": "Guatemala", "region": "LUX" }, "geometry": { "type": "Point", "coordinates": [ -90.5289114, 14.6230805 ] } },
{ "type": "Feature", "properties": { "city_name": "Libreville", "population": 2172579.0, "country_name": "Gabon", "region": "MLT" }, "geometry": { "type": "Point", "coordinates": [ 9.457965, 0.3853886 ] } },
{ "type": "Feature", "properties": { "city_name": "Suva", "population": 889953.0, "country_name": "Fiji", "region": "NLD" }, "geometry": { "type": "Point", "coordinates": [ 178.4417073, -18.1330159 ] } },
{ "type": "Feature", "properties": { "city_name": "Nouakchott", "population": 4525696.0, "country_name": "Mauritania", "region": "POL" }, "geometry": { "type": "Point", "coordinates": [ -15.9753404, 18.086427 ] } },
{ "type": "Feature", "properties": { "city_name": "Bamako", "population": 19658031.0, "country_name": "Mali", "region": "PRT" }, "geometry": { "type": "Point", "coordinates": [ -8.001985, 12.6519605 ] } },
{ "type": "Feature", "properties": { "city_name": "Beirut", "population": 6855713.0, "country_name": "Lebanon", "region": "ROU" }, "geometry": { "type": "Point", "coordinates": [ 35.5077624, 33.873921 ] } },
{ "type": "Feature", "properties": { "city_name": "Tbilisi", "population": 3720382.0, "country_name": "Georgia", "region": "SVK" }, "geometry": { "type": "Point", "coordinates": [ 44.7888496, 41.7269558 ] } },
{ "type": "Feature", "properties": { "city_name": "Astana", "population": 18513930.0, "country_name": "Kazakhstan", "region": "SVN" }, "geometry": { "type": "Point", "coordinates": [ 71.4277742, 51.1811253 ] } },
{ "type": "Feature", "properties": { "city_name": "Vientiane", "population": 7169455.0, "country_name": "Laos", "region": "ESP" }, "geometry": { "type": "Point", "coordinates": [ 102.59998, 17.9666927 ] } },
{ "type": "Feature", "properties": { "city_name": "Brazzaville", "population": 5380508.0, "country_name": "Congo (Brazzaville)", "region": "SWE" }, "geometry": { "type": "Point", "coordinates": [ 15.2827436, -4.2572399 ] } },
{ "type": "Feature", "properties": { "city_name": "Conakry", "population": 12771246.0, "country_name": "Guinea", "region": "GBR" }, "geometry": { "type": "Point", "coordinates": [ -13.6821809, 9.5334687 ] } },
{ "type": "Feature", "properties": { "city_name": "Abidjan", "population": 25716544.0, "country_name": "Ivory Coast", "region": "CHE" }, "geometry": { "type": "Point", "coordinates": [ -4.020206835187587, 5.323126072244571 ] } },
{ "type": "Feature", "properties": { "city_name": "Ottawa", "population": 37589262.0, "country_name": "Canada", "region": "NOR" }, "geometry": { "type": "Point", "coordinates": [ -75.7019612, 45.4186427 ] } },
{ "type": "Feature", "properties": { "city_name": "Belgrade", "population": 6944975.0, "country_name": "Republic of Serbia", "region": "XEF" }, "geometry": { "type": "Point", "coordinates": [ 20.4660448, 44.8205913 ] } },
{ "type": "Feature", "properties": { "city_name": "Bandar Seri Begawan", "population": 433285.0, "country_name": "Brunei", "region": "ALB" }, "geometry": { "type": "Point", "coordinates": [ 114.9332841, 4.8833311 ] } },
{ "type": "Feature", "properties": { "city_name": "La Paz", "population": 11513100.0, "country_name": "Bolivia", "region": "BLR" }, "geometry": { "type": "Point", "coordinates": [ -68.151931, -16.4960278 ] } },
{ "type": "Feature", "properties": { "city_name": "Belmopan", "population": 390353.0, "country_name": "Belize", "region": "RUS" }, "geometry": { "type": "Point", "coordinates": [ -88.767073, 17.2520335 ] } },
{ "type": "Feature", "properties": { "city_name": "Bangui", "population": 4745185.0, "country_name": "Central African Republic", "region": "UKR" }, "geometry": { "type": "Point", "coordinates": [ 18.5582881, 4.3666443 ] } },
{ "type": "Feature", "properties": { "city_name": "Yaounde", "population": 25876380.0, "country_name": "Cameroon", "region": "XEE" }, "geometry": { "type": "Point", "coordinates": [ 11.5147049, 3.8686465 ] } },
{ "type": "Feature", "properties": { "city_name": "Tirana", "population": 2854191.0, "country_name": "Albania", "region": "XER" }, "geometry": { "type": "Point", "coordinates": [ 19.818883, 41.3275407 ] } },
{ "type": "Feature", "properties": { "city_name": "Yerevan", "population": 2957731.0, "country_name": "Armenia", "region": "KAZ" }, "geometry": { "type": "Point", "coordinates": [ 44.5116055, 40.1830966 ] } },
{ "type": "Feature", "properties": { "city_name": "Baku", "population": 10023318.0, "country_name": "Azerbaijan", "region": "KGZ" }, "geometry": { "type": "Point", "coordinates": [ 49.8602713, 40.3972179 ] } },
{ "type": "Feature", "properties": { "city_name": "Phnom Penh", "population": 16486542.0, "country_name": "Cambodia", "region": "TJK" }, "geometry": { "type": "Point", "coordinates": [ 104.9146886, 11.551976 ] } },
{ "type": "Feature", "properties": { "city_name": "Cotonou", "population": 11801151.0, "country_name": "Benin", "region": "XSU" }, "geometry": { "type": "Point", "coordinates": [ 2.404354790887952, 6.362980392242672 ] } },
{ "type": "Feature", "properties": { "city_name": "Sofia", "population": 6975761.0, "country_name": "Bulgaria", "region": "ARM" }, "geometry": { "type": "Point", "coordinates": [ 23.3147082, 42.6852953 ] } },
{ "type": "Feature", "properties": { "city_name": "Minsk", "population": 9466856.0, "country_name": "Belarus", "region": "AZE" }, "geometry": { "type": "Point", "coordinates": [ 27.5646813, 53.9019233 ] } },
{ "type": "Feature", "properties": { "city_name": "Thimphu", "population": 763092.0, "country_name": "Bhutan", "region": "GEO" }, "geometry": { "type": "Point", "coordinates": [ 89.639014, 27.4729859 ] } },
{ "type": "Feature", "properties": { "city_name": "Gaborone", "population": 2303697.0, "country_name": "Botswana", "region": "BHR" }, "geometry": { "type": "Point", "coordinates": [ 25.9119478, -24.6463135 ] } },
{ "type": "Feature", "properties": { "city_name": "Canberra", "population": 25364307.0, "country_name": "Australia", "region": "IRN" }, "geometry": { "type": "Point", "coordinates": [ 149.1290262, -35.2830285 ] } },
{ "type": "Feature", "properties": { "city_name": "Ouagadougou", "population": 20321378.0, "country_name": "Burkina Faso", "region": "ISR" }, "geometry": { "type": "Point", "coordinates": [ -1.5266696, 12.3722618 ] } },
{ "type": "Feature", "properties": { "city_name": "Sarajevo", "population": 3301000.0, "country_name": "Bosnia and Herzegovina", "region": "JOR" }, "geometry": { "type": "Point", "coordinates": [ 18.3830017, 43.8500224 ] } },
{ "type": "Feature", "properties": { "city_name": "Rangoon", "population": 54045420.0, "country_name": "Myanmar", "region": "KWT" }, "geometry": { "type": "Point", "coordinates": [ 96.1647318, 16.7853 ] } },
{ "type": "Feature", "properties": { "city_name": "Victoria", "population": 97625.0, "country_name": "Seychelles", "region": "OMN" }, "geometry": { "type": "Point", "coordinates": [ 55.4499898, -4.6166317 ] } },
{ "type": "Feature", "properties": { "city_name": "Sao Tome", "population": 215056.0, "country_name": "Sao Tome and Principe", "region": "QAT" }, "geometry": { "type": "Point", "coordinates": [ 6.729649806269851, 0.337466406982624 ] } },
{ "type": "Feature", "properties": { "city_name": "Apia", "population": 197097.0, "country_name": "Samoa", "region": "SAU" }, "geometry": { "type": "Point", "coordinates": [ -171.768598976883453, -13.835714958212938 ] } },
{ "type": "Feature", "properties": { "city_name": "Valletta", "population": 502653.0, "country_name": "Malta", "region": "TUR" }, "geometry": { "type": "Point", "coordinates": [ 14.5147107, 35.8997325 ] } },
{ "type": "Feature", "properties": { "city_name": "Male", "population": 530953.0, "country_name": "Maldives", "region": "ARE" }, "geometry": { "type": "Point", "coordinates": [ 73.5089005260037, 4.17203699470936 ] } },
{ "type": "Feature", "properties": { "city_name": "Jerusalem", "population": 9053300.0, "country_name": "Israel", "region": "XWS" }, "geometry": { "type": "Point", "coordinates": [ 35.2066259, 31.7784078 ] } },
{ "type": "Feature", "properties": { "city_name": "Praia", "population": 549935.0, "country_name": "Cape Verde", "region": "EGY" }, "geometry": { "type": "Point", "coordinates": [ -23.5166889, 14.916698 ] } },
{ "type": "Feature", "properties": { "city_name": "Nassau", "population": 389482.0, "country_name": "Bahamas, The", "region": "MAR" }, "geometry": { "type": "Point", "coordinates": [ -77.3500438, 25.0833901 ] } },
{ "type": "Feature", "properties": { "city_name": "Nicosia", "population": 1198575.0, "country_name": "Cyprus", "region": "TUN" }, "geometry": { "type": "Point", "coordinates": [ 33.3666349, 35.1666765 ] } },
{ "type": "Feature", "properties": { "city_name": "Hanoi", "population": 96462106.0, "country_name": "Vietnam", "region": "XNF" }, "geometry": { "type": "Point", "coordinates": [ 105.8480683, 21.0352731 ] } },
{ "type": "Feature", "properties": { "city_name": "Ankara", "population": 83429615.0, "country_name": "Turkey", "region": "BEN" }, "geometry": { "type": "Point", "coordinates": [ 32.8624458, 39.9291844 ] } },
{ "type": "Feature", "properties": { "city_name": "Budapest", "population": 9769949.0, "country_name": "Hungary", "region": "BFA" }, "geometry": { "type": "Point", "coordinates": [ 19.0813748, 47.5019522 ] } },
{ "type": "Feature", "properties": { "city_name": "Sanaa", "population": 29161922.0, "country_name": "Yemen", "region": "CMR" }, "geometry": { "type": "Point", "coordinates": [ 44.2046475, 15.3566792 ] } },
{ "type": "Feature", "properties": { "city_name": "Bucharest", "population": 19356544.0, "country_name": "Romania", "region": "CIV" }, "geometry": { "type": "Point", "coordinates": [ 26.0980008, 44.4353177 ] } },
{ "type": "Feature", "properties": { "city_name": "Damascus", "population": 17070135.0, "country_name": "Syria", "region": "GHA" }, "geometry": { "type": "Point", "coordinates": [ 36.29805, 33.5019799 ] } },
{ "type": "Feature", "properties": { "city_name": "Lisbon", "population": 10269417.0, "country_name": "Portugal", "region": "GIN" }, "geometry": { "type": "Point", "coordinates": [ -9.1468122, 38.7246687 ] } },
{ "type": "Feature", "properties": { "city_name": "Khartoum", "population": 42813238.0, "country_name": "Sudan", "region": "NGA" }, "geometry": { "type": "Point", "coordinates": [ 32.5322334, 15.5900241 ] } },
{ "type": "Feature", "properties": { "city_name": "Oslo", "population": 5347896.0, "country_name": "Kingdom of Norway", "region": "SEN" }, "geometry": { "type": "Point", "coordinates": [ 10.7480333, 59.9186361 ] } },
{ "type": "Feature", "properties": { "city_name": "Warsaw", "population": 37970874.0, "country_name": "Poland", "region": "TGO" }, "geometry": { "type": "Point", "coordinates": [ 21.005346737742283, 52.230871973539507 ] } },
{ "type": "Feature", "properties": { "city_name": "Pyongyang", "population": 25666161.0, "country_name": "Korea, North", "region": "XWF" }, "geometry": { "type": "Point", "coordinates": [ 125.7527449, 39.0213846 ] } },
{ "type": "Feature", "properties": { "city_name": "Dar es Salaam", "population": 58005463.0, "country_name": "United Republic of Tanzania", "region": "XCF" }, "geometry": { "type": "Point", "coordinates": [ 39.266396, -6.7980667 ] } },
{ "type": "Feature", "properties": { "city_name": "Dublin", "population": 4941444.0, "country_name": "Ireland", "region": "XAC" }, "geometry": { "type": "Point", "coordinates": [ -6.256979517281132, 53.34673124898314 ] } },
{ "type": "Feature", "properties": { "city_name": "Monrovia", "population": 4937374.0, "country_name": "Liberia", "region": "ETH" }, "geometry": { "type": "Point", "coordinates": [ -10.7996604, 6.3145816 ] } },
{ "type": "Feature", "properties": { "city_name": "Kuala Lumpur", "population": 31949777.0, "country_name": "Malaysia", "region": "KEN" }, "geometry": { "type": "Point", "coordinates": [ 101.688699291061937, 3.13979694393525 ] } },
{ "type": "Feature", "properties": { "city_name": "Havana", "population": 11333483.0, "country_name": "Cuba", "region": "MDG" }, "geometry": { "type": "Point", "coordinates": [ -82.366128, 23.1339047 ] } },
{ "type": "Feature", "properties": { "city_name": "Prague", "population": 10669709.0, "country_name": "Czechia", "region": "MWI" }, "geometry": { "type": "Point", "coordinates": [ 14.422939486203868, 50.086966537321501 ] } },
{ "type": "Feature", "properties": { "city_name": "Kuwait City", "population": 4207083.0, "country_name": "Kuwait", "region": "MUS" }, "geometry": { "type": "Point", "coordinates": [ 47.9763553, 29.3716635 ] } },
{ "type": "Feature", "properties": { "city_name": "Santo Domingo", "population": 10738958.0, "country_name": "Dominican Republic", "region": "MOZ" }, "geometry": { "type": "Point", "coordinates": [ -69.929742315790548, 18.470745058048376 ] } },
{ "type": "Feature", "properties": { "city_name": "Accra", "population": 30417856.0, "country_name": "Ghana", "region": "RWA" }, "geometry": { "type": "Point", "coordinates": [ -0.2186616, 5.5519805 ] } },
{ "type": "Feature", "properties": { "city_name": "Tripoli", "population": 6777452.0, "country_name": "Libya", "region": "TZA" }, "geometry": { "type": "Point", "coordinates": [ 13.1800118, 32.8925 ] } },
{ "type": "Feature", "properties": { "city_name": "Helsinki", "population": 5520314.0, "country_name": "Finland", "region": "UGA" }, "geometry": { "type": "Point", "coordinates": [ 24.932456915043964, 60.163803849485681 ] } },
{ "type": "Feature", "properties": { "city_name": "Kobenhavn", "population": 5818553.0, "country_name": "Denmark", "region": "ZMB" }, "geometry": { "type": "Point", "coordinates": [ 12.5615399, 55.68051 ] } },
{ "type": "Feature", "properties": { "city_name": "Brasilia", "population": 211049527.0, "country_name": "Brazil", "region": "ZWE" }, "geometry": { "type": "Point", "coordinates": [ -47.9179981, -15.7813944 ] } },
{ "type": "Feature", "properties": { "city_name": "Brussels", "population": 11484055.0, "country_name": "Belgium", "region": "XEC" }, "geometry": { "type": "Point", "coordinates": [ 4.3313707, 50.8352629 ] } },
{ "type": "Feature", "properties": { "city_name": "Dhaka", "population": 163046161.0, "country_name": "Bangladesh", "region": "BWA" }, "geometry": { "type": "Point", "coordinates": [ 90.4066336, 23.7250056 ] } },
{ "type": "Feature", "properties": { "city_name": "Luanda", "population": 31825295.0, "country_name": "Angola", "region": "NAM" }, "geometry": { "type": "Point", "coordinates": [ 13.2324812, -8.8363403 ] } },
{ "type": "Feature", "properties": { "city_name": "Algiers", "population": 43053054.0, "country_name": "Algeria", "region": "ZAF" }, "geometry": { "type": "Point", "coordinates": [ 3.0486067, 36.7650107 ] } },
{ "type": "Feature", "properties": { "city_name": "Caracas", "population": 28515829.0, "country_name": "Venezuela", "region": "XSC" }, "geometry": { "type": "Point", "coordinates": [ -66.9189831, 10.5029444 ] } },
{ "type": "Feature", "properties": { "city_name": "Kiev", "population": 44385155.0, "country_name": "Ukraine", "region": "XTW" }, "geometry": { "type": "Point", "coordinates": [ 30.5146821, 50.4353132 ] } },
{ "type": "Feature", "properties": { "city_name": "Tashkent", "population": 33580650.0, "country_name": "Uzbekistan", "region": "others" }, "geometry": { "type": "Point", "coordinates": [ 69.268822942662609, 41.303828221561979 ] } },
{ "type": "Feature", "properties": { "city_name": "Madrid", "population": 47076781.0, "country_name": "Kingdom of Spain", "region": "others" }, "geometry": { "type": "Point", "coordinates": [ -3.6852975, 40.4019721 ] } },
{ "type": "Feature", "properties": { "city_name": "Stockholm", "population": 10285453.0, "country_name": "Sweden", "region": "others" }, "geometry": { "type": "Point", "coordinates": [ 18.066300168534497, 59.324127204007475 ] } },
{ "type": "Feature", "properties": { "city_name": "Bangkok", "population": 69625582.0, "country_name": "Thailand", "region": "others" }, "geometry": { "type": "Point", "coordinates": [ 100.5146988, 13.7519451 ] } },
{ "type": "Feature", "properties": { "city_name": "Lima", "population": 32510453.0, "country_name": "Peru", "region": "others" }, "geometry": { "type": "Point", "coordinates": [ -77.052008, -12.0460668 ] } },
{ "type": "Feature", "properties": { "city_name": "Dakar", "population": 16296364.0, "country_name": "Senegal", "region": "others" }, "geometry": { "type": "Point", "coordinates": [ -17.475076, 14.7177776 ] } },
{ "type": "Feature", "properties": { "city_name": "Amsterdam", "population": 17332850.0, "country_name": "Kingdom of the Netherlands", "region": "others" }, "geometry": { "type": "Point", "coordinates": [ 4.9146943, 52.3519145 ] } },
{ "type": "Feature", "properties": { "city_name": "Seoul", "population": 51709098.0, "country_name": "Korea, South", "region": "others" }, "geometry": { "type": "Point", "coordinates": [ 126.9977851, 37.568295 ] } },
{ "type": "Feature", "properties": { "city_name": "Manila", "population": 108116615.0, "country_name": "Philippines", "region": "others" }, "geometry": { "type": "Point", "coordinates": [ 120.9802713, 14.6061048 ] } },
{ "type": "Feature", "properties": { "city_name": "Berlin", "population": 83132799.0, "country_name": "Germany", "region": "others" }, "geometry": { "type": "Point", "coordinates": [ 13.3996028, 52.5237645 ] } },
{ "type": "Feature", "properties": { "city_name": "Kinshasa", "population": 86790567.0, "country_name": "Congo (Kinshasa)", "region": "others" }, "geometry": { "type": "Point", "coordinates": [ 15.313026, -4.3277782 ] } },
{ "type": "Feature", "properties": { "city_name": "New Delhi", "population": 1366417754.0, "country_name": "India", "region": "others" }, "geometry": { "type": "Point", "coordinates": [ 77.19998, 28.600023 ] } },
{ "type": "Feature", "properties": { "city_name": "Athens", "population": 10716322.0, "country_name": "Greece", "region": "others" }, "geometry": { "type": "Point", "coordinates": [ 23.7313752, 37.9852721 ] } },
{ "type": "Feature", "properties": { "city_name": "Baghdad", "population": 39309783.0, "country_name": "Iraq", "region": "others" }, "geometry": { "type": "Point", "coordinates": [ 44.3919229, 33.3405944 ] } },
{ "type": "Feature", "properties": { "city_name": "Addis Ababa", "population": 112078730.0, "country_name": "Ethiopia", "region": "others" }, "geometry": { "type": "Point", "coordinates": [ 38.6980586, 9.0352562 ] } },
{ "type": "Feature", "properties": { "city_name": "Tehran", "population": 82913906.0, "country_name": "Iran", "region": "others" }, "geometry": { "type": "Point", "coordinates": [ 51.4223982, 35.6738886 ] } },
{ "type": "Feature", "properties": { "city_name": "Buenos Aires", "population": 44938712.0, "country_name": "Argentina", "region": "others" }, "geometry": { "type": "Point", "coordinates": [ -58.432512687664257, -34.610714591392551 ] } },
{ "type": "Feature", "properties": { "city_name": "Kabul", "population": 38041754.0, "country_name": "Afghanistan", "region": "others" }, "geometry": { "type": "Point", "coordinates": [ 69.1813142, 34.5186361 ] } },
{ "type": "Feature", "properties": { "city_name": "Vienna", "population": 8877067.0, "country_name": "Austria", "region": "others" }, "geometry": { "type": "Point", "coordinates": [ 16.3646931, 48.2019611 ] } },
{ "type": "Feature", "properties": { "city_name": "Taipei", "population": 23568378.0, "country_name": "Taiwan", "region": "others" }, "geometry": { "type": "Point", "coordinates": [ 121.5683333, 25.0358333 ] } },
{ "type": "Feature", "properties": { "city_name": "Washington, D.C.", "population": 328239523.0, "country_name": "United States", "region": "others" }, "geometry": { "type": "Point", "coordinates": [ -77.0113644, 38.9014952 ] } },
{ "type": "Feature", "properties": { "city_name": "London", "population": 66834405.0, "country_name": "United Kingdom", "region": "others" }, "geometry": { "type": "Point", "coordinates": [ -0.1186677, 51.5019406 ] } },
{ "type": "Feature", "properties": { "city_name": "Riyadh", "population": 34268528.0, "country_name": "Saudi Arabia", "region": "others" }, "geometry": { "type": "Point", "coordinates": [ 46.720487024887696, 24.634497474837755 ] } },
{ "type": "Feature", "properties": { "city_name": "Moscow", "population": 144373535.0, "country_name": "Russia", "region": "others" }, "geometry": { "type": "Point", "coordinates": [ 37.613577, 55.75411 ] } },
{ "type": "Feature", "properties": { "city_name": "Mexico City", "population": 127575529.0, "country_name": "Mexico", "region": "others" }, "geometry": { "type": "Point", "coordinates": [ -99.1329341, 19.4443883 ] } },
{ "type": "Feature", "properties": { "city_name": "Rome", "population": 60297396.0, "country_name": "Italy", "region": "others" }, "geometry": { "type": "Point", "coordinates": [ 12.4813126, 41.8979015 ] } },
{ "type": "Feature", "properties": { "city_name": "Beijing", "population": 1397715000.0, "country_name": "China", "region": "others" }, "geometry": { "type": "Point", "coordinates": [ 116.394200892606108, 39.901720309862675 ] } },
{ "type": "Feature", "properties": { "city_name": "Nairobi", "population": 52573973.0, "country_name": "Kenya", "region": "others" }, "geometry": { "type": "Point", "coordinates": [ 36.814711, -1.2814009 ] } },
{ "type": "Feature", "properties": { "city_name": "Jakarta", "population": 270625568.0, "country_name": "Indonesia", "region": "others" }, "geometry": { "type": "Point", "coordinates": [ 106.8274918, -6.1724718 ] } },
{ "type": "Feature", "properties": { "city_name": "Bogota", "population": 50339443.0, "country_name": "Colombia", "region": "others" }, "geometry": { "type": "Point", "coordinates": [ -74.0852898, 4.5983694 ] } },
{ "type": "Feature", "properties": { "city_name": "Cairo", "population": 100388073.0, "country_name": "Egypt", "region": "others" }, "geometry": { "type": "Point", "coordinates": [ 31.2480224, 30.0519062 ] } },
{ "type": "Feature", "properties": { "city_name": "Tokyo", "population": 126264931.0, "country_name": "Japan", "region": "others" }, "geometry": { "type": "Point", "coordinates": [ 139.749461599999989, 35.6869628 ] } },
{ "type": "Feature", "properties": { "city_name": "Paris", "population": 67059887.0, "country_name": "French Republic", "region": "others" }, "geometry": { "type": "Point", "coordinates": [ 2.352992461539213, 48.858092316269108 ] } },
{ "type": "Feature", "properties": { "city_name": "Santiago", "population": 18952038.0, "country_name": "Chile", "region": "others" }, "geometry": { "type": "Point", "coordinates": [ -70.650504072857828, -33.440205069180742 ] } },
{ "type": "Feature", "properties": { "city_name": "Singapore", "population": 5703569.0, "country_name": "Singapore", "region": "others" }, "geometry": { "type": "Point", "coordinates": [ 103.8538748, 1.2949793 ] } },
{ "type": "Feature", "properties": { "city_name": "Wellington", "population": 4917000.0, "country_name": "New Zealand", "region": "others" }, "geometry": { "type": "Point", "coordinates": [ 174.777200946900678, -41.292067992315097 ] } },
{ "type": "Feature", "properties": { "city_name": "Noum√©a", "population": 271407.0, "country_name": "New Caledonia", "region": "others" }, "geometry": { "type": "Point", "coordinates": [ 166.458, -22.2758333 ] } },
{ "type": "Feature", "properties": { "city_name": "George Town", "population": 61944.0, "country_name": "Cayman Islands", "region": "others" }, "geometry": { "type": "Point", "coordinates": [ -81.386388888888902, 19.3033333 ] } },
{ "type": "Feature", "properties": { "city_name": "Nuuk", "population": 56609.0, "country_name": "Greenland", "region": "others" }, "geometry": { "type": "Point", "coordinates": [ 51.721666666666671, 64.1805556 ] } },
{ "type": "Feature", "properties": { "city_name": "Oranjestad", "population": 119428.0, "country_name": "Aruba", "region": "others" }, "geometry": { "type": "Point", "coordinates": [ -70.036944444444444, 12.5188889 ] } },
{ "type": "Feature", "properties": { "city_name": "Macau", "population": 631636.0, "country_name": "Macao SAR", "region": "others" }, "geometry": { "type": "Point", "coordinates": [ 113.55, 22.1666667 ] } },
{ "type": "Feature", "properties": { "city_name": "Willemstad", "population": 211871.0, "country_name": "Netherlands Antilles", "region": "others" }, "geometry": { "type": "Point", "coordinates": [ -68.9332065, 12.1157332 ] } },
{ "type": "Feature", "properties": { "city_name": "Hong Kong", "population": 7333200.0, "country_name": "Hong Kong", "region": "others" }, "geometry": { "type": "Point", "coordinates": [ 114.177216, 22.302711 ] } },
{ "type": "Feature", "properties": { "city_name": "Hamilton", "population": 63913.0, "country_name": "Bermuda", "region": "others" }, "geometry": { "type": "Point", "coordinates": [ -64.7826258, 32.2959487 ] } },
{ "type": "Feature", "properties": { "city_name": "Papeete", "population": 278786.0, "country_name": "French Polynesia", "region": "others" }, "geometry": { "type": "Point", "coordinates": [ -149.599977, -17.5667185 ] } },
{ "type": "Feature", "properties": { "city_name": "Road Town", "population": 30030.0, "country_name": "British Virgin Islands", "region": "others" }, "geometry": { "type": "Point", "coordinates": [ -64.6224758, 18.4309861 ] } },
{ "type": "Feature", "properties": { "city_name": "Gaza City", "population": 2375259.0, "country_name": "Gaza Strip", "region": "others" }, "geometry": { "type": "Point", "coordinates": [ 34.4546287, 31.5145709 ] } },
{ "type": "Feature", "properties": { "city_name": "Volgograd", "population": 1016137.0, "country_name": "Former USSR", "region": "others" }, "geometry": { "type": "Point", "coordinates": [ 44.5148109, 48.7085716 ] } },
{ "type": "Feature", "properties": { "city_name": "ROW (Pointe a Pitre)", "population": 26522548.0, "country_name": "Rest of World", "region": "others" }, "geometry": { "type": "Point", "coordinates": [ -61.5325661, 16.240913 ] } }
]
}
